{"monday":[{"name":"Csci 4131 Lecture","start":"09:45","end":"11:00","phone":"See Class information on Canvas","location":"5 Blegen Hall","info":"CSci 4131 Info","url":"https://onestop2.umn.edu/pcas/viewCatalogCourse.do?courseId=790654"},{"name":"New Event","start":"12:30","end":"14:00","phone":"Testing","location":"test","info":"Noting Important","url":"https://canvas.umn.edu/"},{"name":"Dr C In Person Office Hours","start":"15:00","end":"16:00","phone":"See Meeting info on Class Google calendar","location":"383 Shepherd Labs","info":"Calendar Link","url":"https://calendar.google.com/calendar/u/0?cid=Y19tNGluOGdvanYyOTJ0NTE2a3Z0M3RmNW1mb0Bncm91cC5jYWxlbmRhci5nb29nbGUuY29t"}],"tuesday":[{"name":"Csci 2081 Lecture","start":"14:30","end":"15:45","phone":"See Class information on Canvas","location":"3-210 Keller Hall","info":"CSci 2081 Canvas","url":"https://www.coursicle.com/umn/courses/CSCI/2081/"}],"wednesday":[{"name":"CSci 4131 Lecture","start":"09:45","end":"11:00","phone":"See Class information on Canvas","location":"5 Blegen Hall","info":"CSci 4131 Info","url":"https://onestop2.umn.edu/pcas/viewCatalogCourse.do?courseId=790654"},{"name":"Dr C Virtual Office Hours","start":"19:15","end":"20:15","phone":"See Zoom Meeting info on Class Google Calendar","location":"Virtual (Zoom)","info":"Calendar Link","url":"https://calendar.google.com/calendar/u/0?cid=Y19tNGluOGdvanYyOTJ0NTE2a3Z0M3RmNW1mb0Bncm91cC5jYWxlbmRhci5nb29nbGUuY29t"}],"thursday":[{"name":"Walk Dog","start":"07:30","end":"09:00","phone":"(612) 370-4926","location":"901 15th Ave SE Minneapolis, MN 55414","info":"Dog Walk Info","url":"https://www.minneapolisparks.org/parks__destinations/parks__lakes/van_cleve_park/"},{"name":"CSci 2081 Lecture","start":"14:30","end":"15:45","phone":"See Class information on Canvas","location":"3-210 Keller Hall","info":"CSci 4011 Canvas","url":"https://www.coursicle.com/umn/courses/CSCI/2081/"}],"friday":[],"saturday":[{"name":"Breakfast","start":"10:00","end":"11:00","phone":"(612) 331-9991","location":"413 14th Ave SE Minneapolis, MN 55414","info":"Breakfast","url":"https://www.alsbreakfastmpls.com/"}],"sunday":[{"name":"Jog","start":"10:00","end":"11:00","phone":"None","location":"1801 6th St SE, Minneapolis MN 55455","info":"Info on where I'm Jogging","url":"https://www.google.com/maps/place/University+of+Minnesota+Track+%26+Field+Stadium/@44.9814117,-93.2272704,15z/data=!4m5!3m4!1s0x0:0xd101ef8600ae63fb!8m2!3d44.9814117!4d-93.2272704"}]}